{
  "branches": [
    {
      "id": "aba_koran",
      "name": "ABA-KORAN",
      "city": "Addis Ababa",
      "region": "Addis Ababa",
      "address": "AA, Khlid Ahmed bulg. Ground Floor",
      "plus_code": "2PQR+6M2 Addis Ababa",
      "latitude": 9.038003,
      "longitude": 38.741628
    },
    {
      "id": "abajifar",
      "name": "ABAJIFAR",
      "city": "Addis Ababa",
      "region": "Oromia",
      "address": "Furi, Luli Ye gebeya maekel ground floor",
      "plus_code": "XM2P+HV2 Addis Ababa",
      "latitude": 8.951378,
      "longitude": 38.687128
    },
    {
      "id": "abdi_nonno",
      "name": "ABDI-NONNO",
      "city": "Addis Ababa",
      "region": "Oromia",
      "address": "AA,ASHEWA MEDA ,INFRONT OF SHAKA MOLL",
      "plus_code": "VQ9P+PR6, Addis Ababa",
      "latitude": 8.869254,
      "longitude": 38.787003
    },
    {
      "id": "abinet_hira",
      "name": "ABINET-HIRA",
      "city": "Addis Ababa",
      "region": "Addis Ababa",
      "address": "Addis Ababa Josshansen and family area",
      "plus_code": "2P9P+34H Addis Ababa",
      "latitude": 9.017631,
      "longitude": 38.735258
    },
    {
      "id": "adam_minara_branch",
      "name": "Adam Minara Branch",
      "city": "Adama",
      "region": "Oromia",
      "address": "Oromia",
      "plus_code": "G7RH+VJ2 Adama",
      "latitude": 8.542128,
      "longitude": 39.279003
    },
    {
      "id": "adama",
      "name": "ADAMA",
      "city": "Adama",
      "region": "Oromia",
      "address": "Adama, kebele badetu, chercher yegebeya maekel ground floor​",
      "plus_code": "G7XC+39J Adama",
      "latitude": 8.547632,
      "longitude": 39.270878
    },
    {
      "id": "adama_tebarek",
      "name": "Adama Tebarek",
      "city": "Adama",
      "region": "Oromia",
      "address": "Oromia region Adama city Sar tera",
      "plus_code": "G7W8+CMG Adama",
      "latitude": 8.546006,
      "longitude": 39.266631
    },
    {
      "id": "adama_nur",
      "name": "ADAMA-NUR",
      "city": "Adama",
      "region": "Oromia",
      "address": "Adama, firanco area infront of mohammed nur bulg. , Ground floor",
      "plus_code": "G7R7+8HJ Adama",
      "latitude": 8.540757,
      "longitude": 39.263878
    },
    {
      "id": "agaro_branch",
      "name": "Agaro Branch",
      "city": "Agaro",
      "region": "Oromia",
      "address": "Oromia, southwest Jimma zone",
      "plus_code": "VH4M+3XH Agaro",
      "latitude": 7.855131,
      "longitude": 36.584883
    },
    {
      "id": "agena_nur_banch",
      "name": "Agena Nur Banch",
      "city": "Gurage",
      "region": "Centeral Ethiopia",
      "address": "Gurage",
      "plus_code": "42P5+J58",
      "latitude": 9.136504,
      "longitude": 39.007881
    },
    {
      "id": "akaki_rahman_branch",
      "name": "Akaki-Rahman Branch",
      "city": "Addis Ababa",
      "region": "Addis Ababa",
      "address": "A.A City Adminstration Akaki Kality sub City Woreda 03 Akaki Gebeya",
      "plus_code": "VQ9P+PR6 Addis Ababa",
      "latitude": 8.869254,
      "longitude": 38.787003
    },
    {
      "id": "al_qaswa",
      "name": "AL_QASWA",
      "city": "Jijiga",
      "region": "Somali",
      "address": "Jigjiga Ketema DX-MALL Ground Floor",
      "plus_code": "9Q2X+2QQ, Jijiga",
      "latitude": 9.350007,
      "longitude": 42.799383
    },
    {
      "id": "alemgena",
      "name": "ALEMGENA",
      "city": "Alem Gena",
      "region": "Oromia",
      "address": "Alemgena Addis Sefer akababi",
      "plus_code": "WMM7+CHH Alem Gena",
      "latitude": 8.933506,
      "longitude": 38.663883
    },
    {
      "id": "alif",
      "name": "ALIF",
      "city": "Bank, XQVF+9W2, Ethio China St, Addis Ababa",
      "region": "Addis Ababa",
      "address": "AA,Bole,Wello Sefer ( Garad Building ) ground floor",
      "plus_code": "ZamZam Bank, XQVF+9W2, Ethio China St, Addis Ababa",
      "latitude": 8.993378,
      "longitude": 38.774753
    },
    {
      "id": "amin_branch",
      "name": "Amin Branch",
      "city": "S Africa St, Addis Ababa",
      "region": "Addis Ababa",
      "address": "Addis Ababa nifas silk lafto sub city biserat gebril victory tower",
      "plus_code": "XPWH+4M6, S Africa St, Addis Ababa",
      "latitude": 8.995254,
      "longitude": 38.729128
    },
    {
      "id": "anwar_mesjid",
      "name": "ANWAR MESJID",
      "city": "Addis Ababa",
      "region": "Addis Ababa",
      "address": "AA, Anwar Mesjid, infront of Anwar mesjid , Wajid Building 3rd floor",
      "plus_code": "2PMW+P6J Addis Ababa",
      "latitude": 9.034257,
      "longitude": 38.745503
    },
    {
      "id": "arefa",
      "name": "AREFA",
      "city": "Addis Ababa",
      "region": "Addis Ababa",
      "address": "AA, Kolfe , Efoyta Yegebeya maekel 2nd floor",
      "plus_code": "2PR7+MCG Addis Ababa",
      "latitude": 9.041631,
      "longitude": 38.713506
    },
    {
      "id": "assela",
      "name": "ASSELA",
      "city": "Asela",
      "region": "Oromia",
      "address": "Oda gabaya , haji tura cherka cherk gon , samuel hintsa ground floor",
      "plus_code": "X44J+VCW Asela",
      "latitude": 8.957133,
      "longitude": 39.131006
    },
    {
      "id": "atlas_amana",
      "name": "ATLAS-AMANA",
      "city": "Landmark Building ground floor",
      "region": "Addis Ababa",
      "address": "Atlas., near Trafic light, Landmark Building ground floor",
      "plus_code": "2Q3H+HWR",
      "latitude": 9.003883,
      "longitude": 38.779753
    },
    {
      "id": "aweday",
      "name": "AWEDAY",
      "city": "Oromia region East Hararge zone Awoday City Specific cooka distribution",
      "region": "Harar",
      "address": "Oromia region East Hararge zone Awoday City Specific cooka distribution",
      "plus_code": "6HX4925W+WH",
      "latitude": 9.359753,
      "longitude": 42.046378
    },
    {
      "id": "ayer_tena",
      "name": "AYER TENA",
      "city": "Addis Ababa",
      "region": "Addis Ababa",
      "address": "AA , AYER TENA ,AROUND ANSAR MESJED --- BULIDING GROUND FLOOR",
      "plus_code": "XMJV+VQ6, Addis Ababa",
      "latitude": 8.982129,
      "longitude": 38.694378
    },
    {
      "id": "bahir_dar",
      "name": "BAHIR DAR",
      "city": "Bahir Dar",
      "region": "Amhara",
      "address": "B/dar,aroge meneharia HAJI HUSSEN EBRE BUIL.",
      "plus_code": "H9QQ+JFV Bahir Dar",
      "latitude": 11.589008,
      "longitude": 37.38863
    },
    {
      "id": "balcha_selam",
      "name": "BALCHA SELAM",
      "city": "A.A City Adminstration Lideta sub City Around Balcha Hospital Dama Trading",
      "region": "Addis Ababa",
      "address": "A.A City Adminstration Lideta sub City Around Balcha Hospital Dama Trading",
      "plus_code": "6GXW2P7Q+92",
      "latitude": 9.013378,
      "longitude": 38.737503
    },
    {
      "id": "bale_robe_branch",
      "name": "BALE ROBE BRANCH",
      "city": "Robe",
      "region": "Oromia",
      "address": "Bale robe,AROUND green cafee",
      "plus_code": "42F3+89P Robe",
      "latitude": 7.123257,
      "longitude": 40.003381
    },
    {
      "id": "bati",
      "name": "BATI",
      "city": "Bati",
      "region": "Amhara Oromia Liyu Zone",
      "address": "Around menehariya, infront of mina café",
      "plus_code": "52RC+854 Bati",
      "latitude": 9.190753,
      "longitude": 39.020381
    },
    {
      "id": "beyetel_al_aqsa",
      "name": "Beyetel Al AQSA",
      "city": "Addis Ababa",
      "region": "Addis Ababa",
      "address": "Beyetl 40 Metir",
      "plus_code": "2M4J+XXJ Addis Ababa",
      "latitude": 9.007382,
      "longitude": 38.682378
    },
    {
      "id": "bole_bulbula",
      "name": "BOLE BULBULA",
      "city": "Addis Ababa",
      "region": "Addis Ababa",
      "address": "AA, Bole, Bole Bulbula",
      "plus_code": "XQ2P+RM7 Addis Ababa",
      "latitude": 8.952004,
      "longitude": 38.78663
    },
    {
      "id": "bule_hra_branch",
      "name": "Bule-Hra Branch",
      "city": "Bule Hora",
      "region": "Oromia",
      "address": "Oromia Guji zone Bule Hora Ketema",
      "plus_code": "J6PQ+47M Bule Hora",
      "latitude": 8.635257,
      "longitude": 39.23813
    },
    {
      "id": "butajera",
      "name": "BUTAJERA",
      "city": "Butajira",
      "region": "Centeral Ethiopia",
      "address": "Butajira, 05 kebele meneharia area, Amir bulg. Ground floor",
      "plus_code": "498G+24J Butajira",
      "latitude": 8.115007,
      "longitude": 38.375253
    },
    {
      "id": "chiro_branch",
      "name": "Chiro Branch",
      "city": "3VQ6+GWW, Asbe Teferi",
      "region": "Oromia",
      "address": "Oromia ;chiro",
      "plus_code": "Chiro, 3VQ6+GWW, Asbe Teferi",
      "latitude": 9.088758,
      "longitude": 40.862256
    },
    {
      "id": "dessie",
      "name": "DESSIE",
      "city": "former global building ground floor",
      "region": "Amhara",
      "address": "Amhara, Dessie, around Piassa, former global building ground floor",
      "plus_code": "7G3X4J8J+6Q",
      "latitude": 11.115503,
      "longitude": 39.631878
    },
    {
      "id": "dessie_arab_genda",
      "name": "DESSIE ARAB GENDA",
      "city": "Dese",
      "region": "Amhara",
      "address": "Near Araba genda mesjid, infront of menehariya",
      "plus_code": "4JCM+9GX Dese",
      "latitude": 11.120883,
      "longitude": 39.633758
    },
    {
      "id": "dessie_arada",
      "name": "DESSIE-ARADA",
      "city": "Dese",
      "region": "Amhara",
      "address": "Amhara Region ,Dessie Ketema ,Dessie Arada sub city edget yegebeya mahikel 1th floor.",
      "plus_code": "4J7P+7GG Dese",
      "latitude": 11.113131,
      "longitude": 39.636256
    },
    {
      "id": "dilla",
      "name": "DILLA",
      "city": "Dila",
      "region": "South Ethiopia",
      "address": "Dilla, amstenga menged infront of bilal mesjid",
      "plus_code": "C876+34R Dila",
      "latitude": 6.412633,
      "longitude": 38.310253
    },
    {
      "id": "dire_dawa",
      "name": "Dire Dawa",
      "city": "Dr.Selhadin Buliding ground fllor",
      "region": "D/dawa",
      "address": "D/dawa kebele 06, Dr.Selhadin Buliding ground fllor",
      "plus_code": "6HX3HVQ8+V3",
      "latitude": 9.589628,
      "longitude": 41.865128
    },
    {
      "id": "diredawa_sabian_branch",
      "name": "Diredawa Sabian Branch",
      "city": "Dire Dawa",
      "region": "Dirdawa",
      "address": "Dirdawa",
      "plus_code": "JR3Q+4HG Dire Dawa",
      "latitude": 9.602756,
      "longitude": 41.838881
    },
    {
      "id": "diredawa_ashewa",
      "name": "DIREDAWA-ASHEWA",
      "city": "Dire Dawa",
      "region": "Dirdawa",
      "address": "Ashewa, Hassen aydora Building",
      "plus_code": "HVXC+P72 Dire Dawa",
      "latitude": 9.599253,
      "longitude": 41.870628
    },
    {
      "id": "dodola_huda",
      "name": "DODOLA-HUDA",
      "city": "Dodola",
      "region": "Oromia",
      "address": "Oromia region Zone West Arsi Dodolla city medawabe kebele",
      "plus_code": "X5GJ+V6G Dodola",
      "latitude": 6.977186,
      "longitude": 39.180577
    },
    {
      "id": "fateh_hossana",
      "name": "FATEH-HOSSANA",
      "city": "Central Ethiopia Region Hadiya zone Hossana City Near to Hkima Supermarket",
      "region": "Centeral Ethiopia",
      "address": "Central Ethiopia Region Hadiya zone Hossana City Near to Hkima Supermarket",
      "plus_code": "6GVVGVW2+3M",
      "latitude": 7.545128,
      "longitude": 37.851628
    },
    {
      "id": "gelemso_branch",
      "name": "Gelemso Branch",
      "city": "Oromia region west Harerge Gelemiso city wereda 02 Mustefa Hashim Bulding",
      "region": "Oromia",
      "address": "Oromia region west Harerge Gelemiso city wereda 02 Mustefa Hashim Bulding",
      "plus_code": "6HW2RG88+QF",
      "latitude": 8.816878,
      "longitude": 40.516128
    },
    {
      "id": "gerji_nejashi",
      "name": "GERJI NEJASHI",
      "city": "Addis Ababa",
      "region": "Addis Ababa",
      "address": "Gerji , ROBA DABO AKABABI",
      "plus_code": "XRV7+V9C Addis Ababa",
      "latitude": 8.994631,
      "longitude": 38.813378
    },
    {
      "id": "girar_hamza",
      "name": "GIRAR-HAMZA",
      "city": "Addis Ababa",
      "region": "Addis Ababa",
      "address": "Addis Ababa girar around silte sefer",
      "plus_code": "XMHP+M29, Addis Ababa",
      "latitude": 8.979129,
      "longitude": 38.685008
    },
    {
      "id": "goffa_iqraa",
      "name": "GOFFA IQRAA",
      "city": "Addis Ababa",
      "region": "Addis Ababa",
      "address": "Goffa adebabay , gofa 12 mahber bulg. First floor",
      "plus_code": "XPGX+6J9 Addis Ababa",
      "latitude": 8.975504,
      "longitude": 38.749008
    },
    {
      "id": "gondor_branch",
      "name": "Gondor Branch",
      "city": "Gondar",
      "region": "Amhara",
      "address": "Gonder hulgeb yegbeya mahkel face to face (arada menhariya around)",
      "plus_code": "JF38+8JX Gondar",
      "latitude": 12.603258,
      "longitude": 37.466508
    },
    {
      "id": "gulelle_saba",
      "name": "GULELLE SABA",
      "city": "Addis Ababa",
      "region": "Addis Ababa",
      "address": "A.A,Gulele W08 Around Saba Mesjid",
      "plus_code": "3P2F+77V Addis Ababa",
      "latitude": 9.050633,
      "longitude": 38.72313
    },
    {
      "id": "gurd_shola_hiba",
      "name": "GURD SHOLA-HIBA",
      "city": "Addis Ababa",
      "region": "Addis Ababa",
      "address": "A.A Gurdshola Bole Bulbula Around Maryam Mazoria Yodit Building Ground Floor",
      "plus_code": "2R9F+C7R Addis Ababa",
      "latitude": 9.018508,
      "longitude": 38.823128
    },
    {
      "id": "haik",
      "name": "HAIK",
      "city": "Hayk",
      "region": "Amhara",
      "address": "Ahmara region south wollo haik ketema Near Bank of Abyissinia around Haik Madeya",
      "plus_code": "8M7G+2V Hayk",
      "latitude": 9.312503,
      "longitude": 38.677128
    },
    {
      "id": "hajerah",
      "name": "HAJERAH",
      "city": "Addis Ababa",
      "region": "Addis Ababa",
      "address": "AA, N/s/L , mekanissa , around huda mesjid, Nedim building ground floor",
      "plus_code": "XPFJ+JVV Addis Ababa",
      "latitude": 8.974008,
      "longitude": 38.73213
    },
    {
      "id": "haji_ture",
      "name": "HAJI TURE",
      "city": "Addis Ababa",
      "region": "Addis Ababa",
      "address": "AA,Adiss ketema, Merkato, Mierab hotel, Chalut yegebeya maekel 2nd floor",
      "plus_code": "2PHQ+H3G Addis Ababa",
      "latitude": 9.028881,
      "longitude": 38.737631
    },
    {
      "id": "halaba",
      "name": "HALABA",
      "city": "Alaba Kulito",
      "region": "Centeral Ethiopia",
      "address": "Halaba, infornt of imam nunede adebabay ​",
      "plus_code": "837Q+66X Alaba Kulito",
      "latitude": 7.313008,
      "longitude": 38.088008
    },
    {
      "id": "haq",
      "name": "HAQ",
      "city": "Addis Ababa",
      "region": "Addis Ababa",
      "address": "AA, Alem Bank , ordofo building ground floor",
      "plus_code": "2M2H+44R Addis Ababa",
      "latitude": 9.000258,
      "longitude": 38.677753
    },
    {
      "id": "harar_abdir_branch",
      "name": "Harar Abdir Branch",
      "city": "Harar",
      "region": "Harari Regional State",
      "address": "Harar abadir, around ketema limat",
      "plus_code": "846G+MX4 Harar",
      "latitude": 9.311628,
      "longitude": 42.127381
    },
    {
      "id": "harar_hakim",
      "name": "HARAR HAKIM",
      "city": "infront of imam ahmed mesjid",
      "region": "Harari Regional State",
      "address": "Harar arategna,infront of imam ahmed mesjid",
      "plus_code": "6HX4846G+MX",
      "latitude": 9.311628,
      "longitude": 42.127378
    },
    {
      "id": "harar_mujahid",
      "name": "Harar Mujahid",
      "city": "Harar",
      "region": "Harari Regional State",
      "address": "Harari",
      "plus_code": "845J+84P Harar",
      "latitude": 9.308257,
      "longitude": 42.130256
    },
    {
      "id": "harbu",
      "name": "HARBU",
      "city": "Harbu",
      "region": "Amhara",
      "address": "Harbu, kebele 01",
      "plus_code": "WQCP+9Q8 Harbu",
      "latitude": 8.920879,
      "longitude": 38.786881
    },
    {
      "id": "hasasa_branch",
      "name": "Hasasa Branch",
      "city": "Asasa",
      "region": "Oromia",
      "address": "Oromia region west Arsi Gedeb hassa woreda Hasasa city near Oromia bank",
      "plus_code": "452W+X47 Asasa",
      "latitude": 9.102379,
      "longitude": 39.195255
    },
    {
      "id": "hassen_enjamo",
      "name": "HASSEN ENJAMO",
      "city": "Addis Ababa",
      "region": "Addis Ababa",
      "address": "Mesalemia, ehil berenda,mirab degan groun flour",
      "plus_code": "2PJF+V62 Addis Ababa",
      "latitude": 9.032128,
      "longitude": 38.723003
    },
    {
      "id": "hawassa",
      "name": "HAWASSA",
      "city": "Arebsefer Around ZELALEM ASMECHI",
      "region": "Sidama",
      "address": "Hawassa,Arebsefer Around ZELALEM ASMECHI",
      "plus_code": "6GVW3F4G+98",
      "latitude": 7.055878,
      "longitude": 38.475753
    },
    {
      "id": "hunein_woleti",
      "name": "HUNEIN /Woleti",
      "city": "Kora Buhurbu, Addis Ababa",
      "region": "Oromia",
      "address": "Oromia shegar city Furi geda faji woreda wolete keb 03",
      "plus_code": "XM6G+88H Kora Buhurbu, Addis Ababa",
      "latitude": 8.960756,
      "longitude": 38.675758
    },
    {
      "id": "jafer_shire",
      "name": "JAFER-SHIRE",
      "city": "Shire",
      "region": "Tigray",
      "address": "Tigray Region, Shire Endeselassie, Shire Ketema Around Dashen Bank",
      "plus_code": "472J+36H Shire",
      "latitude": 11.100131,
      "longitude": 39.280508
    },
    {
      "id": "jemo_tewfik",
      "name": "JEMO TEWFIK",
      "city": "Unnamed Road, Addis Ababa",
      "region": "Addis Ababa",
      "address": "Jemo 1, Afran building ground floor",
      "plus_code": "XP67+59W, Unnamed Road, Addis Ababa",
      "latitude": 8.960383,
      "longitude": 38.713381
    },
    {
      "id": "jigjiga",
      "name": "JIGJIGA",
      "city": "Havana Area Istahil bulg. Ground Floor",
      "region": "Somali",
      "address": "Jijiga, Havana Area Istahil bulg. Ground Floor",
      "plus_code": "6HX48QXW+HJ",
      "latitude": 9.348878,
      "longitude": 42.796503
    },
    {
      "id": "jimma_branch",
      "name": "Jimma Branch",
      "city": "Jimma",
      "region": "Oromia",
      "address": "Oromia region Jimma Zone Infront of Yetebaberut oli",
      "plus_code": "MR9M+C85 Jimma",
      "latitude": 7.668503,
      "longitude": 36.833258
    },
    {
      "id": "kality_nesir",
      "name": "KALITY NESIR",
      "city": "Addis Ababa",
      "region": "Addis Ababa",
      "address": "around kality menehariya, Farid building",
      "plus_code": "VQWC+CC Addis Ababa",
      "latitude": 8.896003,
      "longitude": 38.771003
    },
    {
      "id": "kemise",
      "name": "Kemise",
      "city": "Kemise",
      "region": "Amhara Oromia Liyu Zone",
      "address": "Kemise, Infront of Mussa coca or near to Aman Zeki muslim restorant",
      "plus_code": "PV88+M8V Kemise",
      "latitude": 10.716633,
      "longitude": 39.865755
    },
    {
      "id": "khalid_mekelle",
      "name": "Khalid Mekelle",
      "city": "Mekele",
      "region": "Tigray",
      "address": "Mekelle ketema kedamawi woyane business center.",
      "plus_code": "FFWC+GQG Mekele",
      "latitude": 13.496256,
      "longitude": 39.471881
    },
    {
      "id": "kolfe_fejir_branch",
      "name": "Kolfe Fejir Branch",
      "city": "Addis Ababa",
      "region": "Addis Ababa",
      "address": "kolfe atana tera, around taiwan",
      "plus_code": "2PR8+V2Q Addis Ababa",
      "latitude": 9.042132,
      "longitude": 38.715008
    },
    {
      "id": "kombolcah_kalu_branch",
      "name": "Kombolcah Kalu Branch",
      "city": "Kombolcha",
      "region": "Amhara",
      "address": "Amhara, regional state south wollo zone Qalu wereda Kombolcha sub city around bus station Aynaleme Building",
      "plus_code": "3PPP+FGM Kombolcha",
      "latitude": 11.086132,
      "longitude": 39.736255
    },
    {
      "id": "kombolcha",
      "name": "KOMBOLCHA",
      "city": "Kombolcha",
      "region": "Amhara",
      "address": "Kombolcha,Around sun café or around total",
      "plus_code": "3PPQ+37R Kombolcha",
      "latitude": 11.085133,
      "longitude": 39.738128
    },
    {
      "id": "lafito_bilal",
      "name": "LAFITO BILAL",
      "city": "Addis Ababa",
      "region": "Addis Ababa",
      "address": "Mehal Lafto , around bilal mesjid, new building ground floor",
      "plus_code": "WPXV+8PF Addis Ababa",
      "latitude": 8.948256,
      "longitude": 38.744255
    },
    {
      "id": "lebu_kherat",
      "name": "LEBU KHERAT",
      "city": "Addis Ababa",
      "region": "Addis Ababa",
      "address": "AA, LEBU MUSICA AREA, INFRONT OF KALIDIS COFFE",
      "plus_code": "2M4J+XXJ Addis Ababa",
      "latitude": 9.007382,
      "longitude": 38.682378
    },
    {
      "id": "logia",
      "name": "LOGIA",
      "city": "Logiya",
      "region": "Afar",
      "address": "​Logiya, afdera tera infront of abisiniya bank",
      "plus_code": "PXGJ+P5F Logiya",
      "latitude": 11.726756,
      "longitude": 40.98038
    },
    {
      "id": "megenaga_muhajir_branch",
      "name": "Megenaga Muhajir Branch",
      "city": "Addis Ababa",
      "region": "Addis Ababa",
      "address": "AA, MEGENAGNA AA, NEAR TO DERARTU BLG.",
      "plus_code": "2Q9X+9WJ Addis Ababa",
      "latitude": 9.018382,
      "longitude": 38.799753
    },
    {
      "id": "mekaneselam_branch",
      "name": "Mekaneselam Branch",
      "city": "Mekane Selam",
      "region": "Amhara",
      "address": "mekaneselam south wollo borena zone kebe 02",
      "plus_code": "PQX5+HQW Mekane Selam",
      "latitude": 8.748883,
      "longitude": 38.759381
    },
    {
      "id": "melka_rafu",
      "name": "MELKA RAFU",
      "city": "Kombolcha 3",
      "region": "Oromia",
      "address": "Genda abduke, Infront of Yusuf uso Building",
      "plus_code": "C4QC+XPM Kombolcha 3",
      "latitude": 11.439882,
      "longitude": 40.121755
    },
    {
      "id": "meri_bedir",
      "name": "MERI BEDIR",
      "city": "Addis Ababa",
      "region": "Addis Ababa",
      "address": "AA, MERI GEBEYA akababi",
      "plus_code": "2VC7+4CQ Addis Ababa",
      "latitude": 9.020257,
      "longitude": 38.863508
    },
    {
      "id": "merkato_medina",
      "name": "MERKATO MEDINA",
      "city": "Addis Ababa",
      "region": "​Awtobis tera",
      "address": "​Awtobis tera,Fitch tera, groun floor",
      "plus_code": "XPPX+QQM, Addis Ababa",
      "latitude": 8.9869627,
      "longitude": 38.7494217
    },
    {
      "id": "merkato_mecca",
      "name": "MERKATO-MECCA",
      "city": "Addis Ababa",
      "region": "Addis Ababa",
      "address": "AA, Abdo berenda zelela bulg. 1st floor (from mirab to the sebategna road)",
      "plus_code": "2PHP+Q3J Addis Ababa",
      "latitude": 9.029382,
      "longitude": 38.735128
    },
    {
      "id": "mersa",
      "name": "MERSA",
      "city": "mersa mosque, Mersa",
      "region": "Amhara",
      "address": "WOOLO MERSA​",
      "plus_code": "MM89+F2 mersa mosque, Mersa",
      "latitude": 8.666128,
      "longitude": 38.667503
    },
    {
      "id": "merwa_branch",
      "name": "Merwa Branch",
      "city": "Addis Ababa",
      "region": "Addis Ababa",
      "address": "AA, merkato, goma tera , tsedey building",
      "plus_code": "2PGQ+QX5 Addis Ababa",
      "latitude": 9.026878,
      "longitude": 38.739883
    },
    {
      "id": "mina",
      "name": "MINA",
      "city": "07, Addis Ababa",
      "region": "Addis Ababa",
      "address": "AA, kolfe keranio, Bethel, Near Shoa Supermarket ,Al meshan Building ground floor",
      "plus_code": "2M3V+CGH, 07, Addis Ababa",
      "latitude": 9.003506,
      "longitude": 38.693758
    },
    {
      "id": "mizan_aman_branch",
      "name": "MIZAN AMAN BRANCH",
      "city": "South east ethiopia bench shikop zone mizan amana ketema keb hibret",
      "region": "South west",
      "address": "South east ethiopia bench shikop zone mizan amana ketema keb hibret",
      "plus_code": "8FQ8WVFC+M5",
      "latitude": 6.870443,
      "longitude": 45.924198
    },
    {
      "id": "pissa_nur",
      "name": "PISSA NUR",
      "city": "Addis Ababa",
      "region": "Addis Ababa",
      "address": "Piassa, around Nur masjid, in front of country tower",
      "plus_code": "2QJ2+92C Addis Ababa",
      "latitude": 9.030881,
      "longitude": 38.750003
    },
    {
      "id": "remedan",
      "name": "REMEDAN",
      "city": "Addis Ababa",
      "region": "Addis Ababa",
      "address": "AA, Bole Michael, Emad building 1st floor",
      "plus_code": "XQJF+MPC Addis Ababa",
      "latitude": 8.981631,
      "longitude": 38.774253
    },
    {
      "id": "sebara_babur_furqaan",
      "name": "SEBARA BABUR FURQAAN",
      "city": "Addis Ababa",
      "region": "Addis Ababa",
      "address": "AA,PIASA SEBARA BABUR",
      "plus_code": "2PQX+R4W Addis Ababa",
      "latitude": 9.039508,
      "longitude": 38.747756
    },
    {
      "id": "sefwa",
      "name": "SEFWA",
      "city": "Kenya St, Addis Ababa",
      "region": "Addis Ababa",
      "address": "AA, Merkato, Dubai tera, meseret hiwot yegebeya maekel 2nd floor",
      "plus_code": "2PJQ+8PC, Kenya St, Addis Ababa",
      "latitude": 9.030756,
      "longitude": 38.739253
    },
    {
      "id": "semera_branch",
      "name": "Semera Branch",
      "city": "Semera",
      "region": "Afar",
      "address": "Afar region Semera City 01 kebele",
      "plus_code": "Q2Q5+R8Q Semera",
      "latitude": 11.789507,
      "longitude": 41.008258
    },
    {
      "id": "shashemane",
      "name": "SHASHEMANE",
      "city": "Shashemene",
      "region": "Oromia",
      "address": "Shashemene, Abosto kebele, Meridian kafe ground floor",
      "plus_code": "5JR3+774 Shashemene",
      "latitude": 7.190628,
      "longitude": 38.603131
    },
    {
      "id": "shashemane_abubeker",
      "name": "SHASHEMANE ABUBEKER",
      "city": "Shashemene",
      "region": "Oromia",
      "address": "shashemene awasho woreda 01 kebele",
      "plus_code": "6J36+MHV Shashemene",
      "latitude": 7.204133,
      "longitude": 38.61138
    },
    {
      "id": "shashemene_arada",
      "name": "SHASHEMENE-ARADA",
      "city": "Shashemene",
      "region": "Oromia",
      "address": "Shashemene Arada , Hidyat Trading Building",
      "plus_code": "6H2V+WM9 Shashemene",
      "latitude": 7.202254,
      "longitude": 38.594133
    },
    {
      "id": "shenen_gibe",
      "name": "SHENEN GIBE",
      "city": "Jimma",
      "region": "Oromia",
      "address": "Jimma, Hermata Merkato, IBM building ground floor",
      "plus_code": "MR9M+C92 Jimma",
      "latitude": 7.668503,
      "longitude": 36.833378
    },
    {
      "id": "sidamo_tera_isra",
      "name": "SIDAMO TERA-ISRA",
      "city": "Addis Ababa",
      "region": "Addis Ababa",
      "address": "AA, Merkato, Sidamo Tera, Agenbi Building",
      "plus_code": "2PHQ+MW9 Addis Ababa",
      "latitude": 9.029129,
      "longitude": 38.739758
    },
    {
      "id": "tepii_branch",
      "name": "Tepii Branch",
      "city": "Tepi",
      "region": "South west",
      "address": "South Ethiopia TEPPI",
      "plus_code": "5CXC+2F8 Tepi",
      "latitude": 7.197504,
      "longitude": 35.421131
    },
    {
      "id": "tewbah",
      "name": "TEWBAH",
      "city": "Addis Ababa",
      "region": "Addis Ababa",
      "address": "Around teklehaymanot church, Garad Building 2nd floor",
      "plus_code": "2PGV+RRM Addis Ababa",
      "latitude": 9.027007,
      "longitude": 38.744505
    },
    {
      "id": "torhayloch",
      "name": "TORHAYLOCH",
      "city": "Addis Ababa",
      "region": "Addis Ababa",
      "address": "AA,TORHAYLOCH- NEAR TO AA ISLAMIC AFFAIR",
      "plus_code": "2P59+3MC Addis Ababa",
      "latitude": 9.007631,
      "longitude": 38.719128
    },
    {
      "id": "umer_semeter",
      "name": "UMER-SEMETER",
      "city": "Addis Ababa",
      "region": "Addis Ababa",
      "address": "​AA, Atikilt tera ( Seka Building) , 1st floor",
      "plus_code": "2PMW+P6J Addis Ababa",
      "latitude": 9.034257,
      "longitude": 38.745503
    },
    {
      "id": "wahda_bedele",
      "name": "WAHDA-BEDELE",
      "city": "Bedele",
      "region": "Oromia",
      "address": "Oromia region Buno Bedelle Zone Bedelle City Square Kiyar Building Ground Floor,",
      "plus_code": "F942+5RM Bedele",
      "latitude": 8.455458,
      "longitude": 36.352036
    },
    {
      "id": "werabe",
      "name": "WERABE",
      "city": "Gen Silt'e,Road, Worabe",
      "region": "Centeral Ethiopia",
      "address": "worabe, kebele 02, Agnot Building ground floor",
      "plus_code": "V52P+2Q3, Gen Silt'e,Road, Worabe",
      "latitude": 8.850003,
      "longitude": 39.18688
    },
    {
      "id": "woldia",
      "name": "WOLDIA",
      "city": "Weldiya",
      "region": "Amhara",
      "address": "Piassa, infront of Red Cross",
      "plus_code": "RJJ2+79V Weldiya",
      "latitude": 11.830633,
      "longitude": 39.60088
    },
    {
      "id": "wolkite",
      "name": "WOLKITE",
      "city": "Welkite",
      "region": "Centeral Ethiopia",
      "address": "​Wolkite, gebeya sefer , near zerfu building , 1st floor",
      "plus_code": "7QMH+2JV Welkite",
      "latitude": 8.282508,
      "longitude": 37.779005
    },
    {
      "id": "wolkite_bereka",
      "name": "Wolkite-Bereka",
      "city": "Welkite",
      "region": "Centeral Ethiopia",
      "address": "Ediget chora, Heyru Building​",
      "plus_code": "7QRJ+4C7 Welkite",
      "latitude": 8.290254,
      "longitude": 37.781005
    },
    {
      "id": "worabe_duna_branch",
      "name": "Worabe Duna Branch",
      "city": "Worabe",
      "region": "Centeral Ethiopia",
      "address": "Duna, infront of Worabe hospital, Nuriya Alemar Building",
      "plus_code": "R5MJ+959 Worabe",
      "latitude": 8.833379,
      "longitude": 39.180383
    },
    {
      "id": "yeri_branch",
      "name": "Yeri Branch",
      "city": "Goshcandi",
      "region": "Gambella",
      "address": "Gambella Region",
      "plus_code": "96QP+49X, Goshcandi",
      "latitude": 8.387758,
      "longitude": 34.235883
    }
  ]
}
